[{"city":"Delhi","lat":"28.6600","lng":"77.2300","country":"India","iso2":"IN","population":"29617000","population_proper":"16753235","state":"Delhi"},{"city":"Mumbai","lat":"18.9667","lng":"72.8333","country":"India","iso2":"IN","population":"23355000","population_proper":"12478447","state":"Maharashtra"},{"city":"Kolkata","lat":"22.5411","lng":"88.3378","country":"India","iso2":"IN","population":"17560000","population_proper":"4496694","state":"West Bengal"},{"city":"Bangalore","lat":"12.9699","lng":"77.5980","country":"India","iso2":"IN","population":"13707000","population_proper":"8443675","state":"Karnataka"},{"city":"Chennai","lat":"13.0825","lng":"80.2750","country":"India","iso2":"IN","population":"11324000","population_proper":"6727000","state":"Tamil Nadu"},{"city":"Hyderabad","lat":"17.3667","lng":"78.4667","country":"India","iso2":"IN","population":"9746000","population_proper":"6993262","state":"Telangana"},{"city":"Pune","lat":"18.5196","lng":"73.8553","country":"India","iso2":"IN","population":"7764000","population_proper":"3124458","state":"Maharashtra"},{"city":"Ahmedabad","lat":"23.0300","lng":"72.5800","country":"India","iso2":"IN","population":"7410000","population_proper":"5570585","state":"Gujarat"},{"city":"Surat","lat":"21.1700","lng":"72.8300","country":"India","iso2":"IN","population":"5807000","population_proper":"4466826","state":"Gujarat"},{"city":"Lucknow","lat":"26.8470","lng":"80.9470","country":"India","iso2":"IN","population":"3382000","population_proper":"3382000","state":"Uttar Pradesh"},{"city":"Jaipur","lat":"26.9167","lng":"75.8667","country":"India","iso2":"IN","population":"3073350","population_proper":"3073350","state":"Rajasthan"},{"city":"Cawnpore","lat":"26.4725","lng":"80.3311","country":"India","iso2":"IN","population":"2701324","population_proper":"2701324","state":"Uttar Pradesh"},{"city":"Mirzapur","lat":"25.1500","lng":"82.5800","country":"India","iso2":"IN","population":"2496970","population_proper":"2496970","state":"Uttar Pradesh"},{"city":"Nagpur","lat":"21.1539","lng":"79.0831","country":"India","iso2":"IN","population":"2405665","population_proper":"2405665","state":"Maharashtra"},{"city":"Ghaziabad","lat":"28.6667","lng":"77.4167","country":"India","iso2":"IN","population":"2381452","population_proper":"2381452","state":"Uttar Pradesh"},{"city":"Indore","lat":"22.7206","lng":"75.8472","country":"India","iso2":"IN","population":"2201927","population_proper":"2201927","state":"Madhya Pradesh"},{"city":"Vadodara","lat":"22.3000","lng":"73.2000","country":"India","iso2":"IN","population":"2065771","population_proper":"2065771","state":"Gujarat"},{"city":"Vishakhapatnam","lat":"17.7333","lng":"83.3167","country":"India","iso2":"IN","population":"2035922","population_proper":"2035922","state":"Andhra Pradesh"},{"city":"Bhopal","lat":"23.2500","lng":"77.4167","country":"India","iso2":"IN","population":"1883381","population_proper":"1883381","state":"Madhya Pradesh"},{"city":"Chinchvad","lat":"18.6278","lng":"73.8131","country":"India","iso2":"IN","population":"1729320","population_proper":"1729320","state":"Maharashtra"},{"city":"Patna","lat":"25.6100","lng":"85.1414","country":"India","iso2":"IN","population":"1684222","population_proper":"1684222","state":"Bihar"},{"city":"Ludhiana","lat":"30.9083","lng":"75.8486","country":"India","iso2":"IN","population":"1649000","population_proper":"1545368","state":"Punjab"},{"city":"Agra","lat":"27.1800","lng":"78.0200","country":"India","iso2":"IN","population":"1585705","population_proper":"1585705","state":"Uttar Pradesh"},{"city":"Kalyan","lat":"19.2502","lng":"73.1602","country":"India","iso2":"IN","population":"1576614","population_proper":"1576614","state":"Maharashtra"},{"city":"Madurai","lat":"9.9197","lng":"78.1194","country":"India","iso2":"IN","population":"1561129","population_proper":"1561129","state":"Tamil Nadu"},{"city":"Jamshedpur","lat":"22.8000","lng":"86.1833","country":"India","iso2":"IN","population":"1558000","population_proper":"1558000","state":"Jharkhand"},{"city":"Nasik","lat":"20.0000","lng":"73.7833","country":"India","iso2":"IN","population":"1486053","population_proper":"1486053","state":"Maharashtra"},{"city":"Faridabad","lat":"28.4333","lng":"77.3167","country":"India","iso2":"IN","population":"1394000","population_proper":"1394000","state":"Haryana"},{"city":"Aurangabad","lat":"19.8800","lng":"75.3200","country":"India","iso2":"IN","population":"1371330","population_proper":"1371330","state":"Maharashtra"},{"city":"Rajkot","lat":"22.2969","lng":"70.7984","country":"India","iso2":"IN","population":"1335397","population_proper":"1335397","state":"Gujarat"},{"city":"Meerut","lat":"28.9900","lng":"77.7000","country":"India","iso2":"IN","population":"1305429","population_proper":"1305429","state":"Uttar Pradesh"},{"city":"Jabalpur","lat":"23.1667","lng":"79.9333","country":"India","iso2":"IN","population":"1267564","population_proper":"1267564","state":"Madhya Pradesh"},{"city":"Thane","lat":"19.1800","lng":"72.9633","country":"India","iso2":"IN","population":"1261517","population_proper":"1261517","state":"Maharashtra"},{"city":"Dhanbad","lat":"23.7928","lng":"86.4350","country":"India","iso2":"IN","population":"1246000","population_proper":"219636","state":"Jharkhand"},{"city":"Allahabad","lat":"25.4550","lng":"81.8400","country":"India","iso2":"IN","population":"1201000","population_proper":"1073438","state":"Uttar Pradesh"},{"city":"Varanasi","lat":"25.3189","lng":"83.0128","country":"India","iso2":"IN","population":"1198491","population_proper":"1198491","state":"Uttar Pradesh"},{"city":"Srinagar","lat":"34.0911","lng":"74.8061","country":"India","iso2":"IN","population":"1180570","population_proper":"1180570","state":"Jammu and Kashmir"},{"city":"Amritsar","lat":"31.6167","lng":"74.8500","country":"India","iso2":"IN","population":"1132383","population_proper":"1132383","state":"Punjab"},{"city":"Aligarh","lat":"27.8800","lng":"78.0800","country":"India","iso2":"IN","population":"1131160","population_proper":"1131160","state":"Uttar Pradesh"},{"city":"Bhiwandi","lat":"19.3000","lng":"73.0667","country":"India","iso2":"IN","population":"1125898","population_proper":"1125898","state":"Maharashtra"},{"city":"Gwalior","lat":"26.2150","lng":"78.1931","country":"India","iso2":"IN","population":"1101981","population_proper":"1101981","state":"Madhya Pradesh"},{"city":"Bhilai","lat":"21.2167","lng":"81.4333","country":"India","iso2":"IN","population":"1097000","population_proper":"1097000","state":"Chhattisgarh"},{"city":"Haora","lat":"22.5900","lng":"88.3100","country":"India","iso2":"IN","population":"1077075","population_proper":"1077075","state":"West Bengal"},{"city":"Ranchi","lat":"23.3556","lng":"85.3347","country":"India","iso2":"IN","population":"1073440","population_proper":"1073440","state":"Jharkhand"},{"city":"Bezwada","lat":"16.5167","lng":"80.6167","country":"India","iso2":"IN","population":"1048240","population_proper":"1048240","state":"Andhra Pradesh"},{"city":"Chandigarh","lat":"30.7353","lng":"76.7911","country":"India","iso2":"IN","population":"1026459","population_proper":"1026459","state":"Chandigarh"},{"city":"Mysore","lat":"12.3086","lng":"76.6531","country":"India","iso2":"IN","population":"1014227","population_proper":"1014227","state":"Karnataka"},{"city":"Raipur","lat":"21.2379","lng":"81.6337","country":"India","iso2":"IN","population":"1010087","population_proper":"1010087","state":"Chhattisgarh"},{"city":"Kota","lat":"25.1800","lng":"75.8300","country":"India","iso2":"IN","population":"1001694","population_proper":"1001694","state":"Rajasthan"},{"city":"Bareilly","lat":"28.3640","lng":"79.4150","country":"India","iso2":"IN","population":"1000000","population_proper":"1000000","state":"Uttar Pradesh"},{"city":"Jodhpur","lat":"26.2918","lng":"73.0168","country":"India","iso2":"IN","population":"995000","population_proper":"921476","state":"Rajasthan"},{"city":"Coimbatore","lat":"11.0000","lng":"76.9667","country":"India","iso2":"IN","population":"959823","population_proper":"959823","state":"Tamil Nadu"},{"city":"Dispur","lat":"26.1500","lng":"91.7700","country":"India","iso2":"IN","population":"957352","population_proper":"957352","state":"Assam"},{"city":"Guwahati","lat":"26.1667","lng":"91.7667","country":"India","iso2":"IN","population":"957352","population_proper":"957352","state":"Assam"},{"city":"Solapur","lat":"17.6833","lng":"75.9167","country":"India","iso2":"IN","population":"951558","population_proper":"951558","state":"Maharashtra"},{"city":"Trichinopoly","lat":"10.8269","lng":"78.6928","country":"India","iso2":"IN","population":"916857","population_proper":"916857","state":"Tamil Nadu"},{"city":"Hubli","lat":"15.3600","lng":"75.1250","country":"India","iso2":"IN","population":"890000","population_proper":"792804","state":"Karnataka"},{"city":"Jalandhar","lat":"31.3256","lng":"75.5792","country":"India","iso2":"IN","population":"873725","population_proper":"873725","state":"Punjab"},{"city":"Bhubaneshwar","lat":"20.2644","lng":"85.8281","country":"India","iso2":"IN","population":"837737","population_proper":"837737","state":"Odisha"},{"city":"Bhayandar","lat":"19.3000","lng":"72.8500","country":"India","iso2":"IN","population":"814655","population_proper":"814655","state":"Maharashtra"},{"city":"Moradabad","lat":"28.8418","lng":"78.7568","country":"India","iso2":"IN","population":"787000","population_proper":"721139","state":"Uttar Pradesh"},{"city":"Kolhapur","lat":"16.7000","lng":"74.2333","country":"India","iso2":"IN","population":"750000","population_proper":"561841","state":"Maharashtra"},{"city":"Thiruvananthapuram","lat":"8.5000","lng":"76.8997","country":"India","iso2":"IN","population":"743691","population_proper":"743691","state":"Kerala"},{"city":"Saharanpur","lat":"29.9640","lng":"77.5460","country":"India","iso2":"IN","population":"705478","population_proper":"705478","state":"Uttar Pradesh"},{"city":"Warangal","lat":"17.9756","lng":"79.6011","country":"India","iso2":"IN","population":"704570","population_proper":"704570","state":"Telangana"},{"city":"Salem","lat":"11.6500","lng":"78.1667","country":"India","iso2":"IN","population":"693236","population_proper":"693236","state":"Tamil Nadu"},{"city":"Malegaon","lat":"20.5500","lng":"74.5500","country":"India","iso2":"IN","population":"690844","population_proper":"435362","state":"Maharashtra"},{"city":"Kochi","lat":"9.9667","lng":"76.2833","country":"India","iso2":"IN","population":"677381","population_proper":"677381","state":"Kerala"},{"city":"Gorakhpur","lat":"26.7611","lng":"83.3667","country":"India","iso2":"IN","population":"673446","population_proper":"673446","state":"Uttar Pradesh"},{"city":"Shimoga","lat":"13.9304","lng":"75.5600","country":"India","iso2":"IN","population":"654055","population_proper":"319550","state":"Karnataka"},{"city":"Tiruppur","lat":"11.1075","lng":"77.3398","country":"India","iso2":"IN","population":"650000","population_proper":"444543","state":"Tamil Nadu"},{"city":"Guntur","lat":"16.3000","lng":"80.4500","country":"India","iso2":"IN","population":"647508","population_proper":"647508","state":"Andhra Pradesh"},{"city":"Raurkela","lat":"22.2492","lng":"84.8828","country":"India","iso2":"IN","population":"625831","population_proper":"483629","state":"Odisha"},{"city":"Mangalore","lat":"12.8703","lng":"74.8806","country":"India","iso2":"IN","population":"623841","population_proper":"623841","state":"Karnataka"},{"city":"Nanded","lat":"19.1500","lng":"77.3333","country":"India","iso2":"IN","population":"623708","population_proper":"550564","state":"Maharashtra"},{"city":"Cuttack","lat":"20.4500","lng":"85.8667","country":"India","iso2":"IN","population":"606007","population_proper":"606007","state":"Odisha"},{"city":"Chanda","lat":"19.9500","lng":"79.3000","country":"India","iso2":"IN","population":"595118","population_proper":"328351","state":"Maharashtra"},{"city":"Dehra Dun","lat":"30.3180","lng":"78.0290","country":"India","iso2":"IN","population":"578420","population_proper":"578420","state":"Uttarakhand"},{"city":"Durgapur","lat":"23.5500","lng":"87.3200","country":"India","iso2":"IN","population":"566517","population_proper":"566517","state":"West Bengal"},{"city":"Asansol","lat":"23.6833","lng":"86.9667","country":"India","iso2":"IN","population":"563917","population_proper":"563917","state":"West Bengal"},{"city":"Bhavnagar","lat":"21.7650","lng":"72.1369","country":"India","iso2":"IN","population":"554978","population_proper":"464602","state":"Gujarat"},{"city":"Amravati","lat":"20.9333","lng":"77.7500","country":"India","iso2":"IN","population":"549370","population_proper":"549370","state":"Maharashtra"},{"city":"Nellore","lat":"14.4333","lng":"79.9667","country":"India","iso2":"IN","population":"547621","population_proper":"547621","state":"Andhra Pradesh"},{"city":"Ajmer","lat":"26.4680","lng":"74.6390","country":"India","iso2":"IN","population":"542321","population_proper":"542321","state":"Rajasthan"},{"city":"Tinnevelly","lat":"8.7289","lng":"77.7081","country":"India","iso2":"IN","population":"542200","population_proper":"435844","state":"Tamil Nadu"},{"city":"Bikaner","lat":"28.0181","lng":"73.3169","country":"India","iso2":"IN","population":"529007","population_proper":"529007","state":"Rajasthan"},{"city":"Agartala","lat":"23.8333","lng":"91.2667","country":"India","iso2":"IN","population":"522613","population_proper":"522613","state":"Tripura"},{"city":"Ujjain","lat":"23.1828","lng":"75.7772","country":"India","iso2":"IN","population":"515215","population_proper":"515215","state":"Madhya Pradesh"},{"city":"Jhansi","lat":"25.4486","lng":"78.5696","country":"India","iso2":"IN","population":"507000","population_proper":"507000","state":"Uttar Pradesh"},{"city":"Ulhasnagar","lat":"19.2167","lng":"73.1500","country":"India","iso2":"IN","population":"506098","population_proper":"506098","state":"Maharashtra"},{"city":"Davangere","lat":"14.4667","lng":"75.9167","country":"India","iso2":"IN","population":"503564","population_proper":"435125","state":"Karnataka"},{"city":"Jammu","lat":"32.7333","lng":"74.8500","country":"India","iso2":"IN","population":"502197","population_proper":"502197","state":"Jammu and Kashmir"},{"city":"Belgaum","lat":"15.8667","lng":"74.5000","country":"India","iso2":"IN","population":"488157","population_proper":"488157","state":"Karnataka"},{"city":"Gulbarga","lat":"17.3333","lng":"76.8333","country":"India","iso2":"IN","population":"483615","population_proper":"481478","state":"Karnataka"},{"city":"Jamnagar","lat":"22.4700","lng":"70.0700","country":"India","iso2":"IN","population":"479920","population_proper":"479920","state":"Gujarat"},{"city":"Dhulia","lat":"20.9000","lng":"74.7833","country":"India","iso2":"IN","population":"479073","population_proper":"366980","state":"Maharashtra"},{"city":"Gaya","lat":"24.7500","lng":"85.0167","country":"India","iso2":"IN","population":"474093","population_proper":"474093","state":"Bihar"},{"city":"Jalgaon","lat":"21.0167","lng":"75.5667","country":"India","iso2":"IN","population":"460468","population_proper":"460468","state":"Maharashtra"},{"city":"Kurnool","lat":"15.8222","lng":"78.0350","country":"India","iso2":"IN","population":"457633","population_proper":"457633","state":"Andhra Pradesh"},{"city":"Udaipur","lat":"24.5833","lng":"73.6833","country":"India","iso2":"IN","population":"451100","population_proper":"451100","state":"Rajasthan"},{"city":"Bellary","lat":"15.1500","lng":"76.9150","country":"India","iso2":"IN","population":"445388","population_proper":"336681","state":"Karnataka"},{"city":"Sangli","lat":"16.8667","lng":"74.5667","country":"India","iso2":"IN","population":"436639","population_proper":"436639","state":"Maharashtra"},{"city":"Tuticorin","lat":"8.7833","lng":"78.1333","country":"India","iso2":"IN","population":"436094","population_proper":"436094","state":"Tamil Nadu"},{"city":"Calicut","lat":"11.2500","lng":"75.7667","country":"India","iso2":"IN","population":"431560","population_proper":"431560","state":"Kerala"},{"city":"Akola","lat":"20.7333","lng":"77.0000","country":"India","iso2":"IN","population":"425817","population_proper":"425817","state":"Maharashtra"},{"city":"Bhagalpur","lat":"25.2500","lng":"87.0167","country":"India","iso2":"IN","population":"410210","population_proper":"410210","state":"Bihar"},{"city":"Sikar","lat":"27.6119","lng":"75.1397","country":"India","iso2":"IN","population":"400000","population_proper":"237579","state":"Rajasthan"},{"city":"Tumkur","lat":"13.3300","lng":"77.1000","country":"India","iso2":"IN","population":"399606","population_proper":"307359","state":"Karnataka"},{"city":"Quilon","lat":"8.8853","lng":"76.5864","country":"India","iso2":"IN","population":"397419","population_proper":"397419","state":"Kerala"},{"city":"Muzaffarnagar","lat":"29.4708","lng":"77.7033","country":"India","iso2":"IN","population":"392451","population_proper":"392451","state":"Uttar Pradesh"},{"city":"Bhilwara","lat":"25.3500","lng":"74.6333","country":"India","iso2":"IN","population":"389911","population_proper":"326431","state":"Rajasthan"},{"city":"Nizamabad","lat":"18.6704","lng":"78.1000","country":"India","iso2":"IN","population":"388505","population_proper":"305438","state":"Telangana"},{"city":"Bhatpara","lat":"22.8667","lng":"88.4167","country":"India","iso2":"IN","population":"386019","population_proper":"386019","state":"West Bengal"},{"city":"Kakinada","lat":"16.9333","lng":"82.2167","country":"India","iso2":"IN","population":"384182","population_proper":"384182","state":"Andhra Pradesh"},{"city":"Parbhani","lat":"19.2704","lng":"76.7600","country":"India","iso2":"IN","population":"378326","population_proper":"289629","state":"Maharashtra"},{"city":"Panihati","lat":"22.6900","lng":"88.3700","country":"India","iso2":"IN","population":"377347","population_proper":"377347","state":"West Bengal"},{"city":"Latur","lat":"18.4004","lng":"76.5700","country":"India","iso2":"IN","population":"374394","population_proper":"348967","state":"Maharashtra"},{"city":"Rohtak","lat":"28.9000","lng":"76.5667","country":"India","iso2":"IN","population":"374292","population_proper":"374292","state":"Haryana"},{"city":"Rajapalaiyam","lat":"9.4204","lng":"77.5800","country":"India","iso2":"IN","population":"369991","population_proper":"307959","state":"Tamil Nadu"},{"city":"Ahmadnagar","lat":"19.0833","lng":"74.7333","country":"India","iso2":"IN","population":"350859","population_proper":"350859","state":"Maharashtra"},{"city":"Cuddapah","lat":"14.4667","lng":"78.8167","country":"India","iso2":"IN","population":"344893","population_proper":"344893","state":"Andhra Pradesh"},{"city":"Rajahmundry","lat":"16.9833","lng":"81.7833","country":"India","iso2":"IN","population":"341831","population_proper":"341831","state":"Andhra Pradesh"},{"city":"Alwar","lat":"27.5667","lng":"76.6167","country":"India","iso2":"IN","population":"341422","population_proper":"341422","state":"Rajasthan"},{"city":"Muzaffarpur","lat":"26.1200","lng":"85.3833","country":"India","iso2":"IN","population":"333200","population_proper":"333200","state":"Bihar"},{"city":"Bilaspur","lat":"22.1500","lng":"82.0167","country":"India","iso2":"IN","population":"331030","population_proper":"331030","state":"Chhattisgarh"},{"city":"Mathura","lat":"27.4833","lng":"77.6833","country":"India","iso2":"IN","population":"330511","population_proper":"330511","state":"Uttar Pradesh"},{"city":"Kamarhati","lat":"22.6700","lng":"88.3700","country":"India","iso2":"IN","population":"330211","population_proper":"330211","state":"West Bengal"},{"city":"Patiala","lat":"30.3204","lng":"76.3850","country":"India","iso2":"IN","population":"329224","population_proper":"329224","state":"Punjab"},{"city":"Saugor","lat":"23.8504","lng":"78.7500","country":"India","iso2":"IN","population":"328240","population_proper":"247333","state":"Madhya Pradesh"},{"city":"Bijapur","lat":"16.8244","lng":"75.7154","country":"India","iso2":"IN","population":"327427","population_proper":"327427","state":"Karnataka"},{"city":"Brahmapur","lat":"19.3200","lng":"84.8000","country":"India","iso2":"IN","population":"324726","population_proper":"324726","state":"Odisha"},{"city":"Shahjanpur","lat":"27.8804","lng":"79.9050","country":"India","iso2":"IN","population":"320434","population_proper":"320434","state":"Uttar Pradesh"},{"city":"Trichur","lat":"10.5200","lng":"76.2100","country":"India","iso2":"IN","population":"315596","population_proper":"315596","state":"Kerala"},{"city":"Barddhaman","lat":"23.2500","lng":"87.8500","country":"India","iso2":"IN","population":"314265","population_proper":"314265","state":"West Bengal"},{"city":"Kulti","lat":"23.7300","lng":"86.8500","country":"India","iso2":"IN","population":"313809","population_proper":"313809","state":"West Bengal"},{"city":"Sambalpur","lat":"21.4704","lng":"83.9701","country":"India","iso2":"IN","population":"310852","population_proper":"162887","state":"Odisha"},{"city":"Purnea","lat":"25.7800","lng":"87.4700","country":"India","iso2":"IN","population":"310817","population_proper":"310817","state":"Bihar"},{"city":"Hisar","lat":"29.1489","lng":"75.7367","country":"India","iso2":"IN","population":"307024","population_proper":"307024","state":"Haryana"},{"city":"Firozabad","lat":"27.1500","lng":"78.3949","country":"India","iso2":"IN","population":"306409","population_proper":"306409","state":"Uttar Pradesh"},{"city":"Bidar","lat":"17.9229","lng":"77.5175","country":"India","iso2":"IN","population":"300136","population_proper":"204071","state":"Karnataka"},{"city":"Rampur","lat":"28.8154","lng":"79.0250","country":"India","iso2":"IN","population":"296418","population_proper":"296418","state":"Uttar Pradesh"},{"city":"Shiliguri","lat":"26.7200","lng":"88.4200","country":"India","iso2":"IN","population":"294546","population_proper":"294546","state":"West Bengal"},{"city":"Bali","lat":"22.6500","lng":"88.3400","country":"India","iso2":"IN","population":"293373","population_proper":"293373","state":"West Bengal"},{"city":"Panipat","lat":"29.4004","lng":"76.9700","country":"India","iso2":"IN","population":"292808","population_proper":"292808","state":"Haryana"},{"city":"Karimnagar","lat":"18.4333","lng":"79.1500","country":"India","iso2":"IN","population":"289821","population_proper":"289821","state":"Telangana"},{"city":"Bhuj","lat":"23.2504","lng":"69.8100","country":"India","iso2":"IN","population":"289429","population_proper":"289429","state":"Gujarat"},{"city":"Ichalkaranji","lat":"16.7000","lng":"74.4700","country":"India","iso2":"IN","population":"287570","population_proper":"287570","state":"Maharashtra"},{"city":"Tirupati","lat":"13.6500","lng":"79.4200","country":"India","iso2":"IN","population":"287482","population_proper":"287482","state":"Andhra Pradesh"},{"city":"Hospet","lat":"15.2667","lng":"76.4000","country":"India","iso2":"IN","population":"286007","population_proper":"197846","state":"Karnataka"},{"city":"Aizawl","lat":"23.7104","lng":"92.7200","country":"India","iso2":"IN","population":"283021","population_proper":"265331","state":"Mizoram"},{"city":"Sannai","lat":"24.1600","lng":"80.8300","country":"India","iso2":"IN","population":"283004","population_proper":"283004","state":"Madhya Pradesh"},{"city":"Barasat","lat":"22.2333","lng":"88.4500","country":"India","iso2":"IN","population":"278435","population_proper":"278435","state":"West Bengal"},{"city":"Ratlam","lat":"23.3167","lng":"75.0667","country":"India","iso2":"IN","population":"273892","population_proper":"273892","state":"Madhya Pradesh"},{"city":"Handwara","lat":"34.4000","lng":"74.2800","country":"India","iso2":"IN","population":"269311","population_proper":"269311","state":"Jammu and Kashmir"},{"city":"Drug","lat":"21.1900","lng":"81.2800","country":"India","iso2":"IN","population":"268806","population_proper":"268806","state":"Chhattisgarh"},{"city":"Imphal","lat":"24.8200","lng":"93.9500","country":"India","iso2":"IN","population":"268243","population_proper":"268243","state":"Manipur"},{"city":"Anantapur","lat":"14.6833","lng":"77.6000","country":"India","iso2":"IN","population":"267161","population_proper":"267161","state":"Andhra Pradesh"},{"city":"Etawah","lat":"26.7855","lng":"79.0150","country":"India","iso2":"IN","population":"257448","population_proper":"257448","state":"Uttar Pradesh"},{"city":"Raichur","lat":"16.2104","lng":"77.3550","country":"India","iso2":"IN","population":"255240","population_proper":"225962","state":"Karnataka"},{"city":"Ongole","lat":"15.5000","lng":"80.0500","country":"India","iso2":"IN","population":"252739","population_proper":"252739","state":"Andhra Pradesh"},{"city":"Bharatpur","lat":"27.2172","lng":"77.4900","country":"India","iso2":"IN","population":"252342","population_proper":"252342","state":"Rajasthan"},{"city":"Begusarai","lat":"25.4200","lng":"86.1300","country":"India","iso2":"IN","population":"252008","population_proper":"252008","state":"Bihar"},{"city":"Sonipat","lat":"28.9958","lng":"77.0114","country":"India","iso2":"IN","population":"250521","population_proper":"250521","state":"Haryana"},{"city":"Ramgundam","lat":"18.8000","lng":"79.4500","country":"India","iso2":"IN","population":"242979","population_proper":"242979","state":"Telangana"},{"city":"Hapur","lat":"28.7437","lng":"77.7628","country":"India","iso2":"IN","population":"242920","population_proper":"242920","state":"Uttar Pradesh"},{"city":"Uluberiya","lat":"22.4700","lng":"88.1100","country":"India","iso2":"IN","population":"235345","population_proper":"235345","state":"West Bengal"},{"city":"Porbandar","lat":"21.6425","lng":"69.6047","country":"India","iso2":"IN","population":"234684","population_proper":"138872","state":"Gujarat"},{"city":"Pali","lat":"25.7725","lng":"73.3233","country":"India","iso2":"IN","population":"229956","population_proper":"229956","state":"Rajasthan"},{"city":"Vizianagaram","lat":"18.1167","lng":"83.4167","country":"India","iso2":"IN","population":"228720","population_proper":"228720","state":"Andhra Pradesh"},{"city":"Puducherry","lat":"11.9300","lng":"79.8300","country":"India","iso2":"IN","population":"227411","population_proper":"227411","state":"Puducherry"},{"city":"Karnal","lat":"29.6804","lng":"76.9700","country":"India","iso2":"IN","population":"225049","population_proper":"225049","state":"Haryana"},{"city":"Nagercoil","lat":"8.1700","lng":"77.4300","country":"India","iso2":"IN","population":"224329","population_proper":"213858","state":"Tamil Nadu"},{"city":"Tanjore","lat":"10.8000","lng":"79.1500","country":"India","iso2":"IN","population":"222943","population_proper":"222943","state":"Tamil Nadu"},{"city":"Sambhal","lat":"28.5800","lng":"78.5500","country":"India","iso2":"IN","population":"220813","population_proper":"220813","state":"Uttar Pradesh"},{"city":"Naihati","lat":"22.9000","lng":"88.4200","country":"India","iso2":"IN","population":"217900","population_proper":"217900","state":"West Bengal"},{"city":"Secunderabad","lat":"17.4500","lng":"78.5000","country":"India","iso2":"IN","population":"213698","population_proper":"213698","state":"Telangana"},{"city":"Kharagpur","lat":"22.3302","lng":"87.3237","country":"India","iso2":"IN","population":"207604","population_proper":"207604","state":"West Bengal"},{"city":"Dindigul","lat":"10.3500","lng":"77.9500","country":"India","iso2":"IN","population":"207327","population_proper":"207327","state":"Tamil Nadu"},{"city":"Shimla","lat":"31.1033","lng":"77.1722","country":"India","iso2":"IN","population":"206575","population_proper":"206575","state":"Himachal Pradesh"},{"city":"Ingraj Bazar","lat":"25.0000","lng":"88.1500","country":"India","iso2":"IN","population":"205521","population_proper":"205521","state":"West Bengal"},{"city":"Ellore","lat":"16.7000","lng":"81.1000","country":"India","iso2":"IN","population":"203780","population_proper":"203780","state":"Andhra Pradesh"},{"city":"Puri","lat":"19.8000","lng":"85.8167","country":"India","iso2":"IN","population":"201026","population_proper":"201026","state":"Odisha"},{"city":"Haldia","lat":"22.0257","lng":"88.0583","country":"India","iso2":"IN","population":"200762","population_proper":"200762","state":"West Bengal"},{"city":"Nandyal","lat":"15.4800","lng":"78.4800","country":"India","iso2":"IN","population":"200516","population_proper":"200516","state":"Andhra Pradesh"},{"city":"Bulandshahr","lat":"28.4104","lng":"77.8484","country":"India","iso2":"IN","population":"198612","population_proper":"198612","state":"Uttar Pradesh"},{"city":"Chakradharpur","lat":"22.7000","lng":"85.6300","country":"India","iso2":"IN","population":"197953","population_proper":"197953","state":"Jharkhand"},{"city":"Bhiwani","lat":"28.7833","lng":"76.1333","country":"India","iso2":"IN","population":"197662","population_proper":"197662","state":"Haryana"},{"city":"Gurgaon","lat":"28.4500","lng":"77.0200","country":"India","iso2":"IN","population":"197340","population_proper":"197340","state":"Haryana"},{"city":"Burhanpur","lat":"21.3004","lng":"76.1300","country":"India","iso2":"IN","population":"197233","population_proper":"197233","state":"Madhya Pradesh"},{"city":"Khammam","lat":"17.2500","lng":"80.1500","country":"India","iso2":"IN","population":"196283","population_proper":"196283","state":"Telangana"},{"city":"Madhyamgram","lat":"22.7000","lng":"88.4500","country":"India","iso2":"IN","population":"196127","population_proper":"196127","state":"West Bengal"},{"city":"Ghandinagar","lat":"23.2200","lng":"72.6800","country":"India","iso2":"IN","population":"195891","population_proper":"195891","state":"Gujarat"},{"city":"Baharampur","lat":"24.1000","lng":"88.2500","country":"India","iso2":"IN","population":"195223","population_proper":"195223","state":"West Bengal"},{"city":"Mahbubnagar","lat":"16.7333","lng":"77.9833","country":"India","iso2":"IN","population":"190400","population_proper":"190400","state":"Telangana"},{"city":"Mahesana","lat":"23.6000","lng":"72.4000","country":"India","iso2":"IN","population":"184991","population_proper":"184991","state":"Gujarat"},{"city":"Adoni","lat":"15.6300","lng":"77.2800","country":"India","iso2":"IN","population":"184625","population_proper":"184625","state":"Andhra Pradesh"},{"city":"Raiganj","lat":"25.6167","lng":"88.1167","country":"India","iso2":"IN","population":"183612","population_proper":"183612","state":"West Bengal"},{"city":"Bhusaval","lat":"21.0200","lng":"75.8300","country":"India","iso2":"IN","population":"183001","population_proper":"172366","state":"Maharashtra"},{"city":"Bahraigh","lat":"27.6204","lng":"81.6699","country":"India","iso2":"IN","population":"182218","population_proper":"182218","state":"Uttar Pradesh"},{"city":"Shrirampur","lat":"22.7500","lng":"88.3400","country":"India","iso2":"IN","population":"181842","population_proper":"181842","state":"West Bengal"},{"city":"Tonk","lat":"26.1505","lng":"75.7900","country":"India","iso2":"IN","population":"181734","population_proper":"151331","state":"Rajasthan"},{"city":"Sirsa","lat":"29.4904","lng":"75.0300","country":"India","iso2":"IN","population":"181639","population_proper":"160129","state":"Haryana"},{"city":"Jaunpur","lat":"25.7333","lng":"82.6833","country":"India","iso2":"IN","population":"180362","population_proper":"180362","state":"Uttar Pradesh"},{"city":"Madanapalle","lat":"13.5500","lng":"78.5000","country":"India","iso2":"IN","population":"180180","population_proper":"180180","state":"Andhra Pradesh"},{"city":"Hugli","lat":"22.9000","lng":"88.3900","country":"India","iso2":"IN","population":"179931","population_proper":"179931","state":"West Bengal"},{"city":"Vellore","lat":"12.9204","lng":"79.1500","country":"India","iso2":"IN","population":"177081","population_proper":"177081","state":"Tamil Nadu"},{"city":"Alleppey","lat":"9.5004","lng":"76.3700","country":"India","iso2":"IN","population":"176783","population_proper":"176783","state":"Kerala"},{"city":"Cuddalore","lat":"11.7500","lng":"79.7500","country":"India","iso2":"IN","population":"173676","population_proper":"173676","state":"Tamil Nadu"},{"city":"Deo","lat":"24.6561","lng":"84.4356","country":"India","iso2":"IN","population":"173216","population_proper":"173216","state":"Bihar"},{"city":"Chirala","lat":"15.8200","lng":"80.3500","country":"India","iso2":"IN","population":"172826","population_proper":"172826","state":"Andhra Pradesh"},{"city":"Machilipatnam","lat":"16.1667","lng":"81.1333","country":"India","iso2":"IN","population":"169892","population_proper":"169892","state":"Andhra Pradesh"},{"city":"Medinipur","lat":"22.4333","lng":"87.3333","country":"India","iso2":"IN","population":"169264","population_proper":"169264","state":"West Bengal"},{"city":"Baramula","lat":"34.2000","lng":"74.3400","country":"India","iso2":"IN","population":"167986","population_proper":"167986","state":"Jammu and Kashmir"},{"city":"Chandannagar","lat":"22.8667","lng":"88.3833","country":"India","iso2":"IN","population":"166867","population_proper":"166867","state":"West Bengal"},{"city":"Fatehpur","lat":"25.8804","lng":"80.8000","country":"India","iso2":"IN","population":"166480","population_proper":"166480","state":"Uttar Pradesh"},{"city":"Udipi","lat":"13.3322","lng":"74.7461","country":"India","iso2":"IN","population":"165401","population_proper":"165401","state":"Karnataka"},{"city":"Tenali","lat":"16.2430","lng":"80.6400","country":"India","iso2":"IN","population":"164937","population_proper":"164937","state":"Andhra Pradesh"},{"city":"Sitalpur","lat":"27.6300","lng":"80.7500","country":"India","iso2":"IN","population":"164435","population_proper":"164435","state":"Uttar Pradesh"},{"city":"Conjeeveram","lat":"12.8308","lng":"79.7078","country":"India","iso2":"IN","population":"164384","population_proper":"164384","state":"Tamil Nadu"},{"city":"Proddatur","lat":"14.7300","lng":"78.5500","country":"India","iso2":"IN","population":"163970","population_proper":"163970","state":"Andhra Pradesh"},{"city":"Navsari","lat":"20.8504","lng":"72.9200","country":"India","iso2":"IN","population":"163000","population_proper":"163000","state":"Gujarat"},{"city":"Godhra","lat":"22.7755","lng":"73.6149","country":"India","iso2":"IN","population":"161925","population_proper":"161925","state":"Gujarat"},{"city":"Budaun","lat":"28.0300","lng":"79.0900","country":"India","iso2":"IN","population":"161555","population_proper":"161555","state":"Uttar Pradesh"},{"city":"Chittoor","lat":"13.2000","lng":"79.1167","country":"India","iso2":"IN","population":"160722","population_proper":"160722","state":"Andhra Pradesh"},{"city":"Haripur","lat":"31.5200","lng":"75.9800","country":"India","iso2":"IN","population":"158142","population_proper":"158142","state":"Punjab"},{"city":"Saharsa","lat":"25.8800","lng":"86.6000","country":"India","iso2":"IN","population":"156540","population_proper":"156540","state":"Bihar"},{"city":"Vidisha","lat":"23.5239","lng":"77.8061","country":"India","iso2":"IN","population":"155959","population_proper":"155959","state":"Madhya Pradesh"},{"city":"Pathankot","lat":"32.2689","lng":"75.6497","country":"India","iso2":"IN","population":"155909","population_proper":"155909","state":"Punjab"},{"city":"Nalgonda","lat":"17.0500","lng":"79.2700","country":"India","iso2":"IN","population":"154326","population_proper":"154326","state":"Telangana"},{"city":"Dibrugarh","lat":"27.4833","lng":"95.0000","country":"India","iso2":"IN","population":"154019","population_proper":"154019","state":"Assam"},{"city":"Balurghat","lat":"25.2167","lng":"88.7667","country":"India","iso2":"IN","population":"153279","population_proper":"153279","state":"West Bengal"},{"city":"Krishnanagar","lat":"23.4000","lng":"88.5000","country":"India","iso2":"IN","population":"153062","population_proper":"153062","state":"West Bengal"},{"city":"Fyzabad","lat":"26.7504","lng":"82.1700","country":"India","iso2":"IN","population":"153047","population_proper":"153047","state":"Uttar Pradesh"},{"city":"Silchar","lat":"24.7904","lng":"92.7900","country":"India","iso2":"IN","population":"152393","population_proper":"152393","state":"Assam"},{"city":"Shantipur","lat":"23.2500","lng":"88.4300","country":"India","iso2":"IN","population":"151777","population_proper":"151777","state":"West Bengal"},{"city":"Hindupur","lat":"13.8300","lng":"77.4900","country":"India","iso2":"IN","population":"151677","population_proper":"151677","state":"Andhra Pradesh"},{"city":"Erode","lat":"11.3408","lng":"77.7172","country":"India","iso2":"IN","population":"151184","population_proper":"151184","state":"Tamil Nadu"},{"city":"Jamuria","lat":"23.7000","lng":"87.0800","country":"India","iso2":"IN","population":"149220","population_proper":"149220","state":"West Bengal"},{"city":"Habra","lat":"22.8300","lng":"88.6300","country":"India","iso2":"IN","population":"147221","population_proper":"147221","state":"West Bengal"},{"city":"Ambala","lat":"30.3786","lng":"76.7725","country":"India","iso2":"IN","population":"146787","population_proper":"146787","state":"Haryana"},{"city":"Mauli","lat":"30.7194","lng":"76.7181","country":"India","iso2":"IN","population":"146213","population_proper":"146213","state":"Punjab"},{"city":"Kolar","lat":"13.1333","lng":"78.1333","country":"India","iso2":"IN","population":"144625","population_proper":"126441","state":"Karnataka"},{"city":"Shillong","lat":"25.5744","lng":"91.8789","country":"India","iso2":"IN","population":"143229","population_proper":"143229","state":"Meghalaya"},{"city":"Bhimavaram","lat":"16.5333","lng":"81.5333","country":"India","iso2":"IN","population":"142184","population_proper":"142184","state":"Andhra Pradesh"},{"city":"New Delhi","lat":"28.7000","lng":"77.2000","country":"India","iso2":"IN","population":"142004","population_proper":"142004","state":"Delhi"},{"city":"Mandsaur","lat":"24.0300","lng":"75.0800","country":"India","iso2":"IN","population":"141667","population_proper":"141667","state":"Madhya Pradesh"},{"city":"Kumbakonam","lat":"10.9805","lng":"79.4000","country":"India","iso2":"IN","population":"139264","population_proper":"139264","state":"Tamil Nadu"},{"city":"Tiruvannamalai","lat":"12.2604","lng":"79.1000","country":"India","iso2":"IN","population":"138243","population_proper":"138243","state":"Tamil Nadu"},{"city":"Chicacole","lat":"18.3000","lng":"83.9000","country":"India","iso2":"IN","population":"137944","population_proper":"137944","state":"Andhra Pradesh"},{"city":"Bankura","lat":"23.2500","lng":"87.0667","country":"India","iso2":"IN","population":"137386","population_proper":"137386","state":"West Bengal"},{"city":"Mandya","lat":"12.5242","lng":"76.8958","country":"India","iso2":"IN","population":"137358","population_proper":"137358","state":"Karnataka"},{"city":"Hassan","lat":"13.0050","lng":"76.1028","country":"India","iso2":"IN","population":"133436","population_proper":"133436","state":"Karnataka"},{"city":"Yavatmal","lat":"20.4000","lng":"78.1333","country":"India","iso2":"IN","population":"132000","population_proper":"132000","state":"Maharashtra"},{"city":"Pilibhit","lat":"28.6400","lng":"79.8100","country":"India","iso2":"IN","population":"131008","population_proper":"131008","state":"Uttar Pradesh"},{"city":"Palghat","lat":"10.7792","lng":"76.6547","country":"India","iso2":"IN","population":"130955","population_proper":"130955","state":"Kerala"},{"city":"Abohar","lat":"30.1204","lng":"74.2900","country":"India","iso2":"IN","population":"130603","population_proper":"130603","state":"Punjab"},{"city":"Palakollu","lat":"16.5333","lng":"81.7333","country":"India","iso2":"IN","population":"129717","population_proper":"129717","state":"Andhra Pradesh"},{"city":"Kanchrapara","lat":"22.9700","lng":"88.4300","country":"India","iso2":"IN","population":"129576","population_proper":"129576","state":"West Bengal"},{"city":"Port Blair","lat":"11.6667","lng":"92.7500","country":"India","iso2":"IN","population":"127562","population_proper":"112050","state":"Andaman and Nicobar Islands"},{"city":"Alipur Duar","lat":"26.4837","lng":"89.5667","country":"India","iso2":"IN","population":"127342","population_proper":"127342","state":"West Bengal"},{"city":"Hathras","lat":"27.6000","lng":"78.0500","country":"India","iso2":"IN","population":"126882","population_proper":"126882","state":"Uttar Pradesh"},{"city":"Guntakal","lat":"15.1700","lng":"77.3800","country":"India","iso2":"IN","population":"126270","population_proper":"126270","state":"Andhra Pradesh"},{"city":"Navadwip","lat":"23.4088","lng":"88.3657","country":"India","iso2":"IN","population":"125543","population_proper":"125543","state":"West Bengal"},{"city":"Basirhat","lat":"22.6572","lng":"88.8942","country":"India","iso2":"IN","population":"125254","population_proper":"125254","state":"West Bengal"},{"city":"Halisahar","lat":"22.9500","lng":"88.4200","country":"India","iso2":"IN","population":"124939","population_proper":"124939","state":"West Bengal"},{"city":"Rishra","lat":"22.7100","lng":"88.3500","country":"India","iso2":"IN","population":"124577","population_proper":"124577","state":"West Bengal"},{"city":"Dharmavaram","lat":"14.4142","lng":"77.7150","country":"India","iso2":"IN","population":"121874","population_proper":"121874","state":"Andhra Pradesh"},{"city":"Baidyabati","lat":"22.7900","lng":"88.3200","country":"India","iso2":"IN","population":"121110","population_proper":"121110","state":"West Bengal"},{"city":"Darjeeling","lat":"27.0417","lng":"88.2631","country":"India","iso2":"IN","population":"118805","population_proper":"118805","state":"West Bengal"},{"city":"Sopur","lat":"34.3000","lng":"74.4700","country":"India","iso2":"IN","population":"118608","population_proper":"118608","state":"Jammu and Kashmir"},{"city":"Gudivada","lat":"16.4300","lng":"80.9900","country":"India","iso2":"IN","population":"118167","population_proper":"118167","state":"Andhra Pradesh"},{"city":"Adilabad","lat":"19.6667","lng":"78.5333","country":"India","iso2":"IN","population":"117167","population_proper":"117167","state":"Telangana"},{"city":"Titagarh","lat":"22.7400","lng":"88.3700","country":"India","iso2":"IN","population":"116541","population_proper":"116541","state":"West Bengal"},{"city":"Chittaurgarh","lat":"24.8894","lng":"74.6239","country":"India","iso2":"IN","population":"116406","population_proper":"116406","state":"Rajasthan"},{"city":"Narasaraopet","lat":"16.2360","lng":"80.0540","country":"India","iso2":"IN","population":"116250","population_proper":"116250","state":"Andhra Pradesh"},{"city":"Dam Dam","lat":"22.6200","lng":"88.4200","country":"India","iso2":"IN","population":"114786","population_proper":"114786","state":"West Bengal"},{"city":"Valparai","lat":"10.3204","lng":"76.9700","country":"India","iso2":"IN","population":"114308","population_proper":"90353","state":"Tamil Nadu"},{"city":"Osmanabad","lat":"18.1667","lng":"76.0500","country":"India","iso2":"IN","population":"112085","population_proper":"112085","state":"Maharashtra"},{"city":"Champdani","lat":"22.8000","lng":"88.3700","country":"India","iso2":"IN","population":"111251","population_proper":"111251","state":"West Bengal"},{"city":"Bangaon","lat":"23.0700","lng":"88.8200","country":"India","iso2":"IN","population":"108864","population_proper":"108864","state":"West Bengal"},{"city":"Khardah","lat":"22.7200","lng":"88.3800","country":"India","iso2":"IN","population":"108496","population_proper":"108496","state":"West Bengal"},{"city":"Tadpatri","lat":"14.9200","lng":"78.0200","country":"India","iso2":"IN","population":"108171","population_proper":"108171","state":"Andhra Pradesh"},{"city":"Jalpaiguri","lat":"26.5167","lng":"88.7333","country":"India","iso2":"IN","population":"107341","population_proper":"107341","state":"West Bengal"},{"city":"Suriapet","lat":"17.1500","lng":"79.6167","country":"India","iso2":"IN","population":"106805","population_proper":"106805","state":"Telangana"},{"city":"Tadepallegudem","lat":"16.8333","lng":"81.5000","country":"India","iso2":"IN","population":"104032","population_proper":"104032","state":"Andhra Pradesh"},{"city":"Bansbaria","lat":"22.9700","lng":"88.4000","country":"India","iso2":"IN","population":"103920","population_proper":"103920","state":"West Bengal"},{"city":"Negapatam","lat":"10.7667","lng":"79.8333","country":"India","iso2":"IN","population":"102905","population_proper":"102905","state":"Tamil Nadu"},{"city":"Bhadreswar","lat":"22.8200","lng":"88.3500","country":"India","iso2":"IN","population":"101477","population_proper":"101477","state":"West Bengal"},{"city":"Chilakalurupet","lat":"16.0892","lng":"80.1672","country":"India","iso2":"IN","population":"101398","population_proper":"101398","state":"Andhra Pradesh"},{"city":"Kalyani","lat":"22.9750","lng":"88.4344","country":"India","iso2":"IN","population":"100575","population_proper":"100575","state":"West Bengal"},{"city":"Gangtok","lat":"27.3300","lng":"88.6200","country":"India","iso2":"IN","population":"100286","population_proper":"100286","state":"Sikkim"},{"city":"Kohima","lat":"25.6667","lng":"94.1194","country":"India","iso2":"IN","population":"99039","population_proper":"99039","state":"Nagaland"},{"city":"Khambhat","lat":"22.3131","lng":"72.6194","country":"India","iso2":"IN","population":"98700","population_proper":"98700","state":"Gujarat"},{"city":"Aurangabad","lat":"24.7704","lng":"84.3800","country":"India","iso2":"IN","population":"95929","population_proper":"95929","state":"Bihar"},{"city":"Emmiganur","lat":"15.7333","lng":"77.4833","country":"India","iso2":"IN","population":"95149","population_proper":"95149","state":"Andhra Pradesh"},{"city":"Rayachoti","lat":"14.0500","lng":"78.7500","country":"India","iso2":"IN","population":"91234","population_proper":"91234","state":"Andhra Pradesh"},{"city":"Kavali","lat":"14.9123","lng":"79.9944","country":"India","iso2":"IN","population":"90099","population_proper":"90099","state":"Andhra Pradesh"},{"city":"Mancheral","lat":"18.8679","lng":"79.4639","country":"India","iso2":"IN","population":"89935","population_proper":"89935","state":"Telangana"},{"city":"Kadiri","lat":"14.1200","lng":"78.1700","country":"India","iso2":"IN","population":"89429","population_proper":"89429","state":"Andhra Pradesh"},{"city":"Ootacamund","lat":"11.4086","lng":"76.6939","country":"India","iso2":"IN","population":"88430","population_proper":"88430","state":"Tamil Nadu"},{"city":"Anakapalle","lat":"17.6800","lng":"83.0200","country":"India","iso2":"IN","population":"86519","population_proper":"86519","state":"Andhra Pradesh"},{"city":"Sirsilla","lat":"18.3800","lng":"78.8300","country":"India","iso2":"IN","population":"83186","population_proper":"83186","state":"Telangana"},{"city":"Kamareddipet","lat":"18.3167","lng":"78.3500","country":"India","iso2":"IN","population":"80315","population_proper":"80315","state":"Telangana"},{"city":"Paloncha","lat":"17.5815","lng":"80.6765","country":"India","iso2":"IN","population":"80199","population_proper":"80199","state":"Telangana"},{"city":"Kottagudem","lat":"17.5500","lng":"80.6300","country":"India","iso2":"IN","population":"79819","population_proper":"79819","state":"Telangana"},{"city":"Tanuku","lat":"16.7500","lng":"81.7000","country":"India","iso2":"IN","population":"77962","population_proper":"77962","state":"Andhra Pradesh"},{"city":"Bodhan","lat":"18.6700","lng":"77.9000","country":"India","iso2":"IN","population":"77573","population_proper":"77573","state":"Telangana"},{"city":"Karur","lat":"10.9504","lng":"78.0833","country":"India","iso2":"IN","population":"76915","population_proper":"76915","state":"Tamil Nadu"},{"city":"Mangalagiri","lat":"16.4300","lng":"80.5500","country":"India","iso2":"IN","population":"73613","population_proper":"73613","state":"Andhra Pradesh"},{"city":"Kairana","lat":"29.4000","lng":"77.2000","country":"India","iso2":"IN","population":"73046","population_proper":"73046","state":"Uttar Pradesh"},{"city":"Markapur","lat":"15.7350","lng":"79.2700","country":"India","iso2":"IN","population":"71092","population_proper":"71092","state":"Andhra Pradesh"},{"city":"Malaut","lat":"30.1900","lng":"74.4990","country":"India","iso2":"IN","population":"70958","population_proper":"70958","state":"Punjab"},{"city":"Bapatla","lat":"15.8889","lng":"80.4700","country":"India","iso2":"IN","population":"70777","population_proper":"70777","state":"Andhra Pradesh"},{"city":"Badvel","lat":"14.7500","lng":"79.0500","country":"India","iso2":"IN","population":"70626","population_proper":"70626","state":"Andhra Pradesh"},{"city":"Jorhat","lat":"26.7500","lng":"94.2167","country":"India","iso2":"IN","population":"69033","population_proper":"69033","state":"Assam"},{"city":"Koratla","lat":"18.8200","lng":"78.7200","country":"India","iso2":"IN","population":"66504","population_proper":"66504","state":"Telangana"},{"city":"Pulivendla","lat":"14.4167","lng":"78.2333","country":"India","iso2":"IN","population":"65706","population_proper":"65706","state":"Andhra Pradesh"},{"city":"Jaisalmer","lat":"26.9167","lng":"70.9167","country":"India","iso2":"IN","population":"65471","population_proper":"65471","state":"Rajasthan"},{"city":"Tadepalle","lat":"16.4667","lng":"80.6000","country":"India","iso2":"IN","population":"64149","population_proper":"64149","state":"Andhra Pradesh"},{"city":"Armur","lat":"18.7900","lng":"78.2900","country":"India","iso2":"IN","population":"64023","population_proper":"64023","state":"Telangana"},{"city":"Jatani","lat":"20.1700","lng":"85.7000","country":"India","iso2":"IN","population":"63697","population_proper":"63697","state":"Odisha"},{"city":"Gadwal","lat":"16.2300","lng":"77.8000","country":"India","iso2":"IN","population":"63177","population_proper":"63177","state":"Telangana"},{"city":"Nagari","lat":"13.3300","lng":"79.5800","country":"India","iso2":"IN","population":"62253","population_proper":"62253","state":"Andhra Pradesh"},{"city":"Wanparti","lat":"16.3610","lng":"78.0627","country":"India","iso2":"IN","population":"60949","population_proper":"60949","state":"Telangana"},{"city":"Ponnuru","lat":"16.0667","lng":"80.5667","country":"India","iso2":"IN","population":"59913","population_proper":"59913","state":"Andhra Pradesh"},{"city":"Vinukonda","lat":"16.0500","lng":"79.7500","country":"India","iso2":"IN","population":"59725","population_proper":"59725","state":"Andhra Pradesh"},{"city":"Itanagar","lat":"27.1000","lng":"93.6200","country":"India","iso2":"IN","population":"59490","population_proper":"59490","state":"Arunachal Pradesh"},{"city":"Tezpur","lat":"26.6338","lng":"92.8000","country":"India","iso2":"IN","population":"58851","population_proper":"58851","state":"Assam"},{"city":"Narasapur","lat":"16.4333","lng":"81.6833","country":"India","iso2":"IN","population":"58770","population_proper":"58770","state":"Andhra Pradesh"},{"city":"Kothapet","lat":"19.3333","lng":"79.4833","country":"India","iso2":"IN","population":"57583","population_proper":"57583","state":"Telangana"},{"city":"Macherla","lat":"16.4800","lng":"79.4300","country":"India","iso2":"IN","population":"57290","population_proper":"57290","state":"Andhra Pradesh"},{"city":"Kandukur","lat":"15.2165","lng":"79.9042","country":"India","iso2":"IN","population":"57246","population_proper":"57246","state":"Andhra Pradesh"},{"city":"Samalkot","lat":"17.0531","lng":"82.1695","country":"India","iso2":"IN","population":"56864","population_proper":"56864","state":"Andhra Pradesh"},{"city":"Bobbili","lat":"18.5667","lng":"83.4167","country":"India","iso2":"IN","population":"56819","population_proper":"56819","state":"Andhra Pradesh"},{"city":"Sattenapalle","lat":"16.3962","lng":"80.1497","country":"India","iso2":"IN","population":"56721","population_proper":"56721","state":"Andhra Pradesh"},{"city":"Vrindavan","lat":"27.5806","lng":"77.7006","country":"India","iso2":"IN","population":"56618","population_proper":"56618","state":"Uttar Pradesh"},{"city":"Mandapeta","lat":"16.8700","lng":"81.9300","country":"India","iso2":"IN","population":"56063","population_proper":"56063","state":"Andhra Pradesh"},{"city":"Belampalli","lat":"19.0558","lng":"79.4931","country":"India","iso2":"IN","population":"55841","population_proper":"55841","state":"Telangana"},{"city":"Bhimunipatnam","lat":"17.8864","lng":"83.4471","country":"India","iso2":"IN","population":"55082","population_proper":"55082","state":"Andhra Pradesh"},{"city":"Nandod","lat":"21.8704","lng":"73.5026","country":"India","iso2":"IN","population":"54923","population_proper":"54923","state":"Gujarat"},{"city":"Pithapuram","lat":"17.1167","lng":"82.2667","country":"India","iso2":"IN","population":"54859","population_proper":"54859","state":"Andhra Pradesh"},{"city":"Punganuru","lat":"13.3667","lng":"78.5833","country":"India","iso2":"IN","population":"54746","population_proper":"54746","state":"Andhra Pradesh"},{"city":"Puttur","lat":"13.4500","lng":"79.5500","country":"India","iso2":"IN","population":"54092","population_proper":"54092","state":"Andhra Pradesh"},{"city":"Jalor","lat":"25.3500","lng":"72.6167","country":"India","iso2":"IN","population":"54081","population_proper":"54081","state":"Rajasthan"},{"city":"Palmaner","lat":"13.2000","lng":"78.7500","country":"India","iso2":"IN","population":"54035","population_proper":"54035","state":"Andhra Pradesh"},{"city":"Dholka","lat":"22.7200","lng":"72.4700","country":"India","iso2":"IN","population":"53792","population_proper":"53792","state":"Gujarat"},{"city":"Jaggayyapeta","lat":"16.8920","lng":"80.0976","country":"India","iso2":"IN","population":"53530","population_proper":"53530","state":"Telangana"},{"city":"Tuni","lat":"17.3500","lng":"82.5500","country":"India","iso2":"IN","population":"53425","population_proper":"53425","state":"Andhra Pradesh"},{"city":"Amalapuram","lat":"16.5833","lng":"82.0167","country":"India","iso2":"IN","population":"53231","population_proper":"53231","state":"Andhra Pradesh"},{"city":"Jagtial","lat":"18.8000","lng":"78.9300","country":"India","iso2":"IN","population":"53213","population_proper":"53213","state":"Telangana"},{"city":"Vikarabad","lat":"17.3300","lng":"77.9000","country":"India","iso2":"IN","population":"53143","population_proper":"53143","state":"Telangana"},{"city":"Venkatagiri","lat":"13.9667","lng":"79.5833","country":"India","iso2":"IN","population":"52688","population_proper":"52688","state":"Andhra Pradesh"},{"city":"Sihor","lat":"21.7000","lng":"71.9700","country":"India","iso2":"IN","population":"52603","population_proper":"52603","state":"Gujarat"},{"city":"Jangaon","lat":"17.7200","lng":"79.1800","country":"India","iso2":"IN","population":"52394","population_proper":"52394","state":"Telangana"},{"city":"Mandamari","lat":"18.9822","lng":"79.4811","country":"India","iso2":"IN","population":"52352","population_proper":"52352","state":"Telangana"},{"city":"Metpalli","lat":"18.8297","lng":"78.5878","country":"India","iso2":"IN","population":"50902","population_proper":"50902","state":"Telangana"},{"city":"Repalle","lat":"16.0200","lng":"80.8500","country":"India","iso2":"IN","population":"50866","population_proper":"50866","state":"Andhra Pradesh"},{"city":"Bhainsa","lat":"19.1000","lng":"77.9667","country":"India","iso2":"IN","population":"49764","population_proper":"49764","state":"Telangana"},{"city":"Jasdan","lat":"22.0300","lng":"71.2000","country":"India","iso2":"IN","population":"48483","population_proper":"48483","state":"Gujarat"},{"city":"Jammalamadugu","lat":"14.8500","lng":"78.3800","country":"India","iso2":"IN","population":"46069","population_proper":"46069","state":"Andhra Pradesh"},{"city":"Rameswaram","lat":"9.2800","lng":"79.3000","country":"India","iso2":"IN","population":"44856","population_proper":"44856","state":"Tamil Nadu"},{"city":"Addanki","lat":"15.8110","lng":"79.9738","country":"India","iso2":"IN","population":"43850","population_proper":"43850","state":"Andhra Pradesh"},{"city":"Nidadavole","lat":"16.9200","lng":"81.6700","country":"India","iso2":"IN","population":"43809","population_proper":"43809","state":"Andhra Pradesh"},{"city":"Bodupal","lat":"17.4139","lng":"78.5783","country":"India","iso2":"IN","population":"43692","population_proper":"43692","state":"Telangana"},{"city":"Rajgir","lat":"25.0300","lng":"85.4200","country":"India","iso2":"IN","population":"41587","population_proper":"41587","state":"Bihar"},{"city":"Rajaori","lat":"33.3800","lng":"74.3000","country":"India","iso2":"IN","population":"41552","population_proper":"41552","state":"Jammu and Kashmir"},{"city":"Naini Tal","lat":"29.3919","lng":"79.4542","country":"India","iso2":"IN","population":"41377","population_proper":"41377","state":"Uttarakhand"},{"city":"Channarayapatna","lat":"12.9000","lng":"76.3900","country":"India","iso2":"IN","population":"40400","population_proper":"40400","state":"Karnataka"},{"city":"Maihar","lat":"24.2700","lng":"80.7500","country":"India","iso2":"IN","population":"40192","population_proper":"40192","state":"Madhya Pradesh"},{"city":"Panaji","lat":"15.4800","lng":"73.8300","country":"India","iso2":"IN","population":"40017","population_proper":"40017","state":"Goa"},{"city":"Junnar","lat":"19.2000","lng":"73.8800","country":"India","iso2":"IN","population":"40000","population_proper":"40000","state":"Maharashtra"},{"city":"Amudalavalasa","lat":"18.4167","lng":"83.9000","country":"India","iso2":"IN","population":"39799","population_proper":"39799","state":"Andhra Pradesh"},{"city":"Daman","lat":"20.4170","lng":"72.8500","country":"India","iso2":"IN","population":"39737","population_proper":"39737","state":"Gujarat"},{"city":"Kovvur","lat":"17.0167","lng":"81.7333","country":"India","iso2":"IN","population":"39667","population_proper":"39667","state":"Andhra Pradesh"},{"city":"Solan","lat":"30.9200","lng":"77.1200","country":"India","iso2":"IN","population":"39256","population_proper":"39256","state":"Himachal Pradesh"},{"city":"Dwarka","lat":"22.2403","lng":"68.9686","country":"India","iso2":"IN","population":"38873","population_proper":"38873","state":"Gujarat"},{"city":"Pathanamthitta","lat":"9.2647","lng":"76.7872","country":"India","iso2":"IN","population":"37802","population_proper":"37802","state":"Kerala"},{"city":"Kodaikanal","lat":"10.2300","lng":"77.4800","country":"India","iso2":"IN","population":"36501","population_proper":"36501","state":"Tamil Nadu"},{"city":"Udhampur","lat":"32.9300","lng":"75.1300","country":"India","iso2":"IN","population":"35507","population_proper":"35507","state":"Jammu and Kashmir"},{"city":"Giddalur","lat":"15.3784","lng":"78.9265","country":"India","iso2":"IN","population":"35150","population_proper":"35150","state":"Andhra Pradesh"},{"city":"Yellandu","lat":"17.6000","lng":"80.3300","country":"India","iso2":"IN","population":"35056","population_proper":"35056","state":"Telangana"},{"city":"Shrirangapattana","lat":"12.4181","lng":"76.6947","country":"India","iso2":"IN","population":"34135","population_proper":"34135","state":"Karnataka"},{"city":"Angamali","lat":"10.1960","lng":"76.3860","country":"India","iso2":"IN","population":"33424","population_proper":"33424","state":"Kerala"},{"city":"Umaria","lat":"23.5245","lng":"80.8365","country":"India","iso2":"IN","population":"33114","population_proper":"33114","state":"Madhya Pradesh"},{"city":"Fatehpur Sikri","lat":"27.0911","lng":"77.6611","country":"India","iso2":"IN","population":"32905","population_proper":"32905","state":"Uttar Pradesh"},{"city":"Mangur","lat":"17.9373","lng":"80.8185","country":"India","iso2":"IN","population":"32091","population_proper":"32091","state":"Telangana"},{"city":"Pedana","lat":"16.2667","lng":"81.1667","country":"India","iso2":"IN","population":"30721","population_proper":"30721","state":"Andhra Pradesh"},{"city":"Uran","lat":"18.8900","lng":"72.9500","country":"India","iso2":"IN","population":"30439","population_proper":"30439","state":"Maharashtra"},{"city":"Chimakurti","lat":"15.5819","lng":"79.8680","country":"India","iso2":"IN","population":"30279","population_proper":"30279","state":"Andhra Pradesh"},{"city":"Devarkonda","lat":"16.7000","lng":"78.9333","country":"India","iso2":"IN","population":"29731","population_proper":"29731","state":"Telangana"},{"city":"Bandipura","lat":"34.4225","lng":"74.6375","country":"India","iso2":"IN","population":"27482","population_proper":"27482","state":"Jammu and Kashmir"},{"city":"Silvassa","lat":"20.2666","lng":"73.0166","country":"India","iso2":"IN","population":"27359","population_proper":"27359","state":"Dadra and Nagar Haveli"},{"city":"Pamidi","lat":"14.9500","lng":"77.5833","country":"India","iso2":"IN","population":"26886","population_proper":"26886","state":"Andhra Pradesh"},{"city":"Narasannapeta","lat":"18.4151","lng":"84.0447","country":"India","iso2":"IN","population":"26280","population_proper":"26280","state":"Andhra Pradesh"},{"city":"Jaynagar-Majilpur","lat":"22.1772","lng":"88.4258","country":"India","iso2":"IN","population":"25922","population_proper":"25922","state":"West Bengal"},{"city":"Khed Brahma","lat":"24.0299","lng":"73.0463","country":"India","iso2":"IN","population":"25001","population_proper":"25001","state":"Gujarat"},{"city":"Khajuraho","lat":"24.8500","lng":"79.9333","country":"India","iso2":"IN","population":"24481","population_proper":"24481","state":"Madhya Pradesh"},{"city":"Koilkuntla","lat":"15.2333","lng":"78.3167","country":"India","iso2":"IN","population":"23859","population_proper":"23859","state":"Andhra Pradesh"},{"city":"Diu","lat":"20.7197","lng":"70.9904","country":"India","iso2":"IN","population":"23779","population_proper":"23779","state":"Daman and Diu"},{"city":"Kulgam","lat":"33.6400","lng":"75.0200","country":"India","iso2":"IN","population":"23584","population_proper":"23584","state":"Jammu and Kashmir"},{"city":"Gauripur","lat":"26.0800","lng":"89.9700","country":"India","iso2":"IN","population":"23477","population_proper":"23477","state":"Assam"},{"city":"Abu","lat":"24.5925","lng":"72.7083","country":"India","iso2":"IN","population":"22943","population_proper":"22943","state":"Rajasthan"},{"city":"Curchorem","lat":"15.2500","lng":"74.1000","country":"India","iso2":"IN","population":"22730","population_proper":"22730","state":"Goa"},{"city":"Kavaratti","lat":"10.5626","lng":"72.6369","country":"India","iso2":"IN","population":"10688","population_proper":"10688","state":"Lakshadweep"},{"city":"Panchkula","lat":"30.6915","lng":"76.8537","country":"India","iso2":"IN","population":"","population_proper":"","state":"Haryana"},{"city":"Kagaznagar","lat":"19.3316","lng":"79.4661","country":"India","iso2":"IN","population":"","population_proper":"","state":"Telangana"}]